[
  {
    "id": "al-us001",
    "name": "AL Materials Site 001",
    "asset_type": "industrial_land",
    "address": "1846 Supply Ave",
    "city": "Logistics Park",
    "state": "AL",
    "zip": "91087",
    "lat": 32.6108,
    "lon": -86.578,
    "size_sqft": null,
    "acreage": 200,
    "clear_height_ft": null,
    "rail_distance_km": 1.6,
    "highway_distance_km": 8.2,
    "power_nearby": false,
    "power_mva_within_10km": 90,
    "water_wastewater_nearby": true,
    "source_name": "City EDO",
    "source_url": "https://example.com/listings/al/001",
    "source_last_checked": "2025-12-15"
  },
  {
    "id": "al-us002",
    "name": "AL Materials Site 002",
    "asset_type": "industrial_building",
    "address": "3167 Logistics Rd",
    "city": "Industrial Hub",
    "state": "AL",
    "zip": "55404",
    "lat": 33.1195,
    "lon": -87.2777,
    "size_sqft": 844539,
    "acreage": null,
    "clear_height_ft": 34,
    "rail_distance_km": 1.5,
    "highway_distance_km": 7.9,
    "power_nearby": true,
    "power_mva_within_10km": 30,
    "water_wastewater_nearby": true,
    "source_name": "Owner",
    "source_url": "https://example.com/listings/al/002",
    "source_last_checked": "2025-12-15"
  },
  {
    "id": "az-us001",
    "name": "AZ Processing Site 001",
    "asset_type": "industrial_building",
    "address": "9937 Industry Rd",
    "city": "Supply Corridor",
    "state": "AZ",
    "zip": "28924",
    "lat": 34.4955,
    "lon": -111.764,
    "size_sqft": 155255,
    "acreage": null,
    "clear_height_ft": 30,
    "rail_distance_km": 0.8,
    "highway_distance_km": 8.5,
    "power_nearby": true,
    "power_mva_within_10km": 75,
    "water_wastewater_nearby": true,
    "source_name": "Developer",
    "source_url": "https://example.com/listings/az/001",
    "source_last_checked": "2025-12-15"
  },
  {
    "id": "az-us002",
    "name": "AZ Materials Site 002",
    "asset_type": "industrial_land",
    "address": "7505 Railspur Rd",
    "city": "Mfg District",
    "state": "AZ",
    "zip": "76563",
    "lat": 34.5639,
    "lon": -112.281,
    "size_sqft": null,
    "acreage": 240,
    "clear_height_ft": null,
    "rail_distance_km": 11.6,
    "highway_distance_km": 4.2,
    "power_nearby": true,
    "power_mva_within_10km": 100,
    "water_wastewater_nearby": true,
    "source_name": "County",
    "source_url": "https://example.com/listings/az/002",
    "source_last_checked": "2025-12-15"
  },
  {
    "id": "az-us003",
    "name": "AZ Distribution Site 003",
    "asset_type": "industrial_building",
    "address": "5681 Supply Parkway",
    "city": "Mfg District",
    "state": "AZ",
    "zip": "94947",
    "lat": 33.9021,
    "lon": -112.0094,
    "size_sqft": 512199,
    "acreage": null,
    "clear_height_ft": 40,
    "rail_distance_km": 14.7,
    "highway_distance_km": 8.8,
    "power_nearby": true,
    "power_mva_within_10km": 60,
    "water_wastewater_nearby": true,
    "source_name": "Developer",
    "source_url": "https://example.com/listings/az/003",
    "source_last_checked": "2025-12-15"
  },
  {
    "id": "ar-us001",
    "name": "AR Materials Site 001",
    "asset_type": "industrial_building",
    "address": "2218 Supply Ave",
    "city": "Metro Area",
    "state": "AR",
    "zip": "84621",
    "lat": 34.7339,
    "lon": -92.5908,
    "size_sqft": 709999,
    "acreage": null,
    "clear_height_ft": 34,
    "rail_distance_km": 10.2,
    "highway_distance_km": 0.5,
    "power_nearby": true,
    "power_mva_within_10km": 40,
    "water_wastewater_nearby": false,
    "source_name": "Utility",
    "source_url": "https://example.com/listings/ar/001",
    "source_last_checked": "2025-12-15"
  },
  {
    "id": "ca-us001",
    "name": "CA Materials Site 001",
    "asset_type": "industrial_building",
    "address": "1757 Supply Ave",
    "city": "Metro Area",
    "state": "CA",
    "zip": "21149",
    "lat": 36.0099,
    "lon": -118.852,
    "size_sqft": 184824,
    "acreage": null,
    "clear_height_ft": 40,
    "rail_distance_km": 5.8,
    "highway_distance_km": 5.6,
    "power_nearby": true,
    "power_mva_within_10km": 20,
    "water_wastewater_nearby": false,
    "source_name": "County",
    "source_url": "https://example.com/listings/ca/001",
    "source_last_checked": "2025-12-15"
  },
  {
    "id": "ca-us002",
    "name": "CA Processing Site 002",
    "asset_type": "industrial_building",
    "address": "6067 Railspur Way",
    "city": "Metro Area",
    "state": "CA",
    "zip": "37230",
    "lat": 35.8069,
    "lon": -119.4205,
    "size_sqft": 172059,
    "acreage": null,
    "clear_height_ft": 34,
    "rail_distance_km": 8.2,
    "highway_distance_km": 8.8,
    "power_nearby": true,
    "power_mva_within_10km": 20,
    "water_wastewater_nearby": true,
    "source_name": "City EDO",
    "source_url": "https://example.com/listings/ca/002",
    "source_last_checked": "2025-12-15"
  },
  {
    "id": "ca-us003",
    "name": "CA Materials Site 003",
    "asset_type": "industrial_shell",
    "address": "7817 Commerce Blvd",
    "city": "Logistics Park",
    "state": "CA",
    "zip": "84698",
    "lat": 37.3666,
    "lon": -118.8251,
    "size_sqft": 347696,
    "acreage": null,
    "clear_height_ft": 36,
    "rail_distance_km": 10.7,
    "highway_distance_km": 7.1,
    "power_nearby": true,
    "power_mva_within_10km": 50,
    "water_wastewater_nearby": false,
    "source_name": "County",
    "source_url": "https://example.com/listings/ca/003",
    "source_last_checked": "2025-12-15"
  },
  {
    "id": "ca-us004",
    "name": "CA Distribution Site 004",
    "asset_type": "industrial_building",
    "address": "198 Industry Ave",
    "city": "Commerce Zone",
    "state": "CA",
    "zip": "99543",
    "lat": 36.1449,
    "lon": -119.6382,
    "size_sqft": 896643,
    "acreage": null,
    "clear_height_ft": 38,
    "rail_distance_km": 5.6,
    "highway_distance_km": 0.2,
    "power_nearby": true,
    "power_mva_within_10km": 75,
    "water_wastewater_nearby": false,
    "source_name": "Developer",
    "source_url": "https://example.com/listings/ca/004",
    "source_last_checked": "2025-12-15"
  },
  {
    "id": "ca-us005",
    "name": "CA Materials Site 005",
    "asset_type": "industrial_building",
    "address": "4253 Commerce Way",
    "city": "Metro Area",
    "state": "CA",
    "zip": "71989",
    "lat": 36.4905,
    "lon": -119.5281,
    "size_sqft": 277694,
    "acreage": null,
    "clear_height_ft": 32,
    "rail_distance_km": 2.2,
    "highway_distance_km": 1.8,
    "power_nearby": false,
    "power_mva_within_10km": 100,
    "water_wastewater_nearby": true,
    "source_name": "Developer",
    "source_url": "https://example.com/listings/ca/005",
    "source_last_checked": "2025-12-15"
  },
  {
    "id": "ca-us006",
    "name": "CA Industrial Site 006",
    "asset_type": "industrial_shell",
    "address": "4066 Energy Rd",
    "city": "Industrial Hub",
    "state": "CA",
    "zip": "51877",
    "lat": 37.1041,
    "lon": -118.7842,
    "size_sqft": 689199,
    "acreage": null,
    "clear_height_ft": 36,
    "rail_distance_km": 11.5,
    "highway_distance_km": 8.2,
    "power_nearby": true,
    "power_mva_within_10km": 100,
    "water_wastewater_nearby": true,
    "source_name": "Utility",
    "source_url": "https://example.com/listings/ca/006",
    "source_last_checked": "2025-12-15"
  },
  {
    "id": "co-us001",
    "name": "CO Distribution Site 001",
    "asset_type": "industrial_building",
    "address": "1959 Manufacturing Parkway",
    "city": "Mfg District",
    "state": "CO",
    "zip": "82997",
    "lat": 38.904,
    "lon": -105.445,
    "size_sqft": 580440,
    "acreage": null,
    "clear_height_ft": 36,
    "rail_distance_km": 5.4,
    "highway_distance_km": 9.9,
    "power_nearby": true,
    "power_mva_within_10km": 120,
    "water_wastewater_nearby": true,
    "source_name": "County",
    "source_url": "https://example.com/listings/co/001",
    "source_last_checked": "2025-12-15"
  },
  {
    "id": "co-us002",
    "name": "CO Materials Site 002",
    "asset_type": "industrial_building",
    "address": "2538 Manufacturing Rd",
    "city": "Metro Area",
    "state": "CO",
    "zip": "71476",
    "lat": 38.6645,
    "lon": -106.0115,
    "size_sqft": 185797,
    "acreage": null,
    "clear_height_ft": 32,
    "rail_distance_km": 9.7,
    "highway_distance_km": 4.3,
    "power_nearby": true,
    "power_mva_within_10km": 75,
    "water_wastewater_nearby": false,
    "source_name": "Utility",
    "source_url": "https://example.com/listings/co/002",
    "source_last_checked": "2025-12-15"
  },
  {
    "id": "ct-us001",
    "name": "CT Industrial Site 001",
    "asset_type": "industrial_building",
    "address": "8269 Industry Blvd",
    "city": "Industrial Hub",
    "state": "CT",
    "zip": "65099",
    "lat": 41.4027,
    "lon": -72.9435,
    "size_sqft": 383127,
    "acreage": null,
    "clear_height_ft": 36,
    "rail_distance_km": 7.1,
    "highway_distance_km": 4.3,
    "power_nearby": true,
    "power_mva_within_10km": 100,
    "water_wastewater_nearby": true,
    "source_name": "Broker",
    "source_url": "https://example.com/listings/ct/001",
    "source_last_checked": "2025-12-15"
  },
  {
    "id": "de-us001",
    "name": "DE Materials Site 001",
    "asset_type": "industrial_building",
    "address": "9140 Industry Rd",
    "city": "Commerce Zone",
    "state": "DE",
    "zip": "47562",
    "lat": 38.6757,
    "lon": -75.0158,
    "size_sqft": 882443,
    "acreage": null,
    "clear_height_ft": 28,
    "rail_distance_km": 3.2,
    "highway_distance_km": 1.5,
    "power_nearby": true,
    "power_mva_within_10km": 20,
    "water_wastewater_nearby": true,
    "source_name": "City EDO",
    "source_url": "https://example.com/listings/de/001",
    "source_last_checked": "2025-12-15"
  },
  {
    "id": "fl-us001",
    "name": "FL Tech Metals Site 001",
    "asset_type": "industrial_building",
    "address": "7693 Manufacturing Ave",
    "city": "Mfg District",
    "state": "FL",
    "zip": "61566",
    "lat": 27.8247,
    "lon": -81.7689,
    "size_sqft": 885303,
    "acreage": null,
    "clear_height_ft": 28,
    "rail_distance_km": 12.9,
    "highway_distance_km": 2.7,
    "power_nearby": true,
    "power_mva_within_10km": 120,
    "water_wastewater_nearby": true,
    "source_name": "Developer",
    "source_url": "https://example.com/listings/fl/001",
    "source_last_checked": "2025-12-15"
  },
  {
    "id": "fl-us002",
    "name": "FL Advanced Mfg Site 002",
    "asset_type": "industrial_building",
    "address": "4104 Energy Rd",
    "city": "Mfg District",
    "state": "FL",
    "zip": "56870",
    "lat": 27.6692,
    "lon": -81.4855,
    "size_sqft": 258879,
    "acreage": null,
    "clear_height_ft": 34,
    "rail_distance_km": 14.4,
    "highway_distance_km": 0.5,
    "power_nearby": true,
    "power_mva_within_10km": 20,
    "water_wastewater_nearby": true,
    "source_name": "City EDO",
    "source_url": "https://example.com/listings/fl/002",
    "source_last_checked": "2025-12-15"
  },
  {
    "id": "fl-us003",
    "name": "FL Advanced Mfg Site 003",
    "asset_type": "industrial_shell",
    "address": "7687 Commerce Parkway",
    "city": "Metro Area",
    "state": "FL",
    "zip": "77372",
    "lat": 28.083,
    "lon": -82.0713,
    "size_sqft": 91050,
    "acreage": null,
    "clear_height_ft": 40,
    "rail_distance_km": 6.9,
    "highway_distance_km": 2.2,
    "power_nearby": true,
    "power_mva_within_10km": 20,
    "water_wastewater_nearby": false,
    "source_name": "County",
    "source_url": "https://example.com/listings/fl/003",
    "source_last_checked": "2025-12-15"
  },
  {
    "id": "fl-us004",
    "name": "FL Distribution Site 004",
    "asset_type": "industrial_building",
    "address": "4271 Manufacturing Ave",
    "city": "Supply Corridor",
    "state": "FL",
    "zip": "71043",
    "lat": 28.5555,
    "lon": -82.3215,
    "size_sqft": 548681,
    "acreage": null,
    "clear_height_ft": 24,
    "rail_distance_km": 8.4,
    "highway_distance_km": 6.7,
    "power_nearby": true,
    "power_mva_within_10km": 100,
    "water_wastewater_nearby": false,
    "source_name": "Utility",
    "source_url": "https://example.com/listings/fl/004",
    "source_last_checked": "2025-12-15"
  },
  {
    "id": "fl-us005",
    "name": "FL Advanced Mfg Site 005",
    "asset_type": "industrial_land",
    "address": "723 Supply Rd",
    "city": "Logistics Park",
    "state": "FL",
    "zip": "40185",
    "lat": 27.4275,
    "lon": -82.0019,
    "size_sqft": null,
    "acreage": 80,
    "clear_height_ft": null,
    "rail_distance_km": 0.3,
    "highway_distance_km": 2.6,
    "power_nearby": true,
    "power_mva_within_10km": 50,
    "water_wastewater_nearby": false,
    "source_name": "Broker",
    "source_url": "https://example.com/listings/fl/005",
    "source_last_checked": "2025-12-15"
  },
  {
    "id": "ga-us001",
    "name": "GA Materials Site 001",
    "asset_type": "industrial_shell",
    "address": "2676 Railspur Parkway",
    "city": "Metro Area",
    "state": "GA",
    "zip": "95271",
    "lat": 32.1313,
    "lon": -83.9393,
    "size_sqft": 294799,
    "acreage": null,
    "clear_height_ft": 28,
    "rail_distance_km": 0.9,
    "highway_distance_km": 6.8,
    "power_nearby": true,
    "power_mva_within_10km": 120,
    "water_wastewater_nearby": false,
    "source_name": "Owner",
    "source_url": "https://example.com/listings/ga/001",
    "source_last_checked": "2025-12-15"
  },
  {
    "id": "ga-us002",
    "name": "GA Tech Metals Site 002",
    "asset_type": "industrial_building",
    "address": "3110 Railspur Rd",
    "city": "Commerce Zone",
    "state": "GA",
    "zip": "33461",
    "lat": 32.307,
    "lon": -83.0937,
    "size_sqft": 880200,
    "acreage": null,
    "clear_height_ft": 40,
    "rail_distance_km": 6.8,
    "highway_distance_km": 8.8,
    "power_nearby": true,
    "power_mva_within_10km": 20,
    "water_wastewater_nearby": true,
    "source_name": "Broker",
    "source_url": "https://example.com/listings/ga/002",
    "source_last_checked": "2025-12-15"
  },
  {
    "id": "ga-us003",
    "name": "GA Materials Site 003",
    "asset_type": "industrial_building",
    "address": "2505 Supply Blvd",
    "city": "Metro Area",
    "state": "GA",
    "zip": "91591",
    "lat": 32.2361,
    "lon": -83.3108,
    "size_sqft": 749878,
    "acreage": null,
    "clear_height_ft": 24,
    "rail_distance_km": 7.7,
    "highway_distance_km": 4.4,
    "power_nearby": true,
    "power_mva_within_10km": 20,
    "water_wastewater_nearby": true,
    "source_name": "Owner",
    "source_url": "https://example.com/listings/ga/003",
    "source_last_checked": "2025-12-15"
  },
  {
    "id": "id-us001",
    "name": "ID Distribution Site 001",
    "asset_type": "industrial_building",
    "address": "5888 Industry Rd",
    "city": "Metro Area",
    "state": "ID",
    "zip": "38092",
    "lat": 44.2028,
    "lon": -114.3566,
    "size_sqft": 93638,
    "acreage": null,
    "clear_height_ft": 40,
    "rail_distance_km": 1.1,
    "highway_distance_km": 6.8,
    "power_nearby": true,
    "power_mva_within_10km": 50,
    "water_wastewater_nearby": false,
    "source_name": "City EDO",
    "source_url": "https://example.com/listings/id/001",
    "source_last_checked": "2025-12-15"
  },
  {
    "id": "il-us001",
    "name": "IL Processing Site 001",
    "asset_type": "industrial_shell",
    "address": "8783 Supply Way",
    "city": "Industrial Hub",
    "state": "IL",
    "zip": "34888",
    "lat": 40.0009,
    "lon": -88.9291,
    "size_sqft": 454608,
    "acreage": null,
    "clear_height_ft": 40,
    "rail_distance_km": 5.0,
    "highway_distance_km": 5.9,
    "power_nearby": true,
    "power_mva_within_10km": 100,
    "water_wastewater_nearby": true,
    "source_name": "County",
    "source_url": "https://example.com/listings/il/001",
    "source_last_checked": "2025-12-15"
  },
  {
    "id": "il-us002",
    "name": "IL Advanced Mfg Site 002",
    "asset_type": "industrial_building",
    "address": "5278 Railspur Way",
    "city": "Supply Corridor",
    "state": "IL",
    "zip": "95322",
    "lat": 39.8084,
    "lon": -88.424,
    "size_sqft": 668121,
    "acreage": null,
    "clear_height_ft": 32,
    "rail_distance_km": 13.8,
    "highway_distance_km": 0.6,
    "power_nearby": true,
    "power_mva_within_10km": 75,
    "water_wastewater_nearby": true,
    "source_name": "Developer",
    "source_url": "https://example.com/listings/il/002",
    "source_last_checked": "2025-12-15"
  },
  {
    "id": "il-us003",
    "name": "IL Materials Site 003",
    "asset_type": "industrial_building",
    "address": "9887 Logistics Parkway",
    "city": "Metro Area",
    "state": "IL",
    "zip": "46668",
    "lat": 40.5708,
    "lon": -89.209,
    "size_sqft": 333756,
    "acreage": null,
    "clear_height_ft": 36,
    "rail_distance_km": 10.8,
    "highway_distance_km": 2.9,
    "power_nearby": true,
    "power_mva_within_10km": 50,
    "water_wastewater_nearby": true,
    "source_name": "Owner",
    "source_url": "https://example.com/listings/il/003",
    "source_last_checked": "2025-12-15"
  },
  {
    "id": "il-us004",
    "name": "IL Industrial Site 004",
    "asset_type": "industrial_shell",
    "address": "4524 Manufacturing Ave",
    "city": "Commerce Zone",
    "state": "IL",
    "zip": "39904",
    "lat": 40.2081,
    "lon": -88.407,
    "size_sqft": 832844,
    "acreage": null,
    "clear_height_ft": 38,
    "rail_distance_km": 13.4,
    "highway_distance_km": 4.4,
    "power_nearby": true,
    "power_mva_within_10km": 75,
    "water_wastewater_nearby": false,
    "source_name": "City EDO",
    "source_url": "https://example.com/listings/il/004",
    "source_last_checked": "2025-12-15"
  },
  {
    "id": "in-us001",
    "name": "IN Industrial Site 001",
    "asset_type": "industrial_building",
    "address": "9326 Industry Ave",
    "city": "Supply Corridor",
    "state": "IN",
    "zip": "10191",
    "lat": 39.416,
    "lon": -86.3841,
    "size_sqft": 881901,
    "acreage": null,
    "clear_height_ft": 28,
    "rail_distance_km": 15.0,
    "highway_distance_km": 3.3,
    "power_nearby": false,
    "power_mva_within_10km": 60,
    "water_wastewater_nearby": true,
    "source_name": "County",
    "source_url": "https://example.com/listings/in/001",
    "source_last_checked": "2025-12-15"
  },
  {
    "id": "in-us002",
    "name": "IN Industrial Site 002",
    "asset_type": "industrial_building",
    "address": "9662 Industry Parkway",
    "city": "Logistics Park",
    "state": "IN",
    "zip": "71005",
    "lat": 40.5396,
    "lon": -86.352,
    "size_sqft": 705509,
    "acreage": null,
    "clear_height_ft": 30,
    "rail_distance_km": 2.7,
    "highway_distance_km": 6.6,
    "power_nearby": true,
    "power_mva_within_10km": 75,
    "water_wastewater_nearby": false,
    "source_name": "County",
    "source_url": "https://example.com/listings/in/002",
    "source_last_checked": "2025-12-15"
  },
  {
    "id": "ia-us001",
    "name": "IA Tech Metals Site 001",
    "asset_type": "industrial_land",
    "address": "1590 Railspur Ave",
    "city": "Metro Area",
    "state": "IA",
    "zip": "16914",
    "lat": 41.8786,
    "lon": -93.6515,
    "size_sqft": null,
    "acreage": 80,
    "clear_height_ft": null,
    "rail_distance_km": 11.1,
    "highway_distance_km": 7.2,
    "power_nearby": true,
    "power_mva_within_10km": 75,
    "water_wastewater_nearby": true,
    "source_name": "Broker",
    "source_url": "https://example.com/listings/ia/001",
    "source_last_checked": "2025-12-15"
  },
  {
    "id": "ks-us001",
    "name": "KS Materials Site 001",
    "asset_type": "industrial_land",
    "address": "2515 Manufacturing Ave",
    "city": "Industrial Hub",
    "state": "KS",
    "zip": "92392",
    "lat": 38.9373,
    "lon": -98.4901,
    "size_sqft": null,
    "acreage": 320,
    "clear_height_ft": null,
    "rail_distance_km": 5.5,
    "highway_distance_km": 6.5,
    "power_nearby": true,
    "power_mva_within_10km": 120,
    "water_wastewater_nearby": true,
    "source_name": "Developer",
    "source_url": "https://example.com/listings/ks/001",
    "source_last_checked": "2025-12-15"
  },
  {
    "id": "ky-us001",
    "name": "KY Distribution Site 001",
    "asset_type": "industrial_land",
    "address": "1626 Railspur Parkway",
    "city": "Metro Area",
    "state": "KY",
    "zip": "12155",
    "lat": 37.4101,
    "lon": -84.6432,
    "size_sqft": null,
    "acreage": 160,
    "clear_height_ft": null,
    "rail_distance_km": 1.1,
    "highway_distance_km": 3.3,
    "power_nearby": true,
    "power_mva_within_10km": 75,
    "water_wastewater_nearby": false,
    "source_name": "City EDO",
    "source_url": "https://example.com/listings/ky/001",
    "source_last_checked": "2025-12-15"
  },
  {
    "id": "ky-us002",
    "name": "KY Distribution Site 002",
    "asset_type": "industrial_shell",
    "address": "5992 Railspur Way",
    "city": "Metro Area",
    "state": "KY",
    "zip": "78113",
    "lat": 37.3293,
    "lon": -84.7975,
    "size_sqft": 274437,
    "acreage": null,
    "clear_height_ft": 40,
    "rail_distance_km": 1.4,
    "highway_distance_km": 9.4,
    "power_nearby": false,
    "power_mva_within_10km": 20,
    "water_wastewater_nearby": false,
    "source_name": "Developer",
    "source_url": "https://example.com/listings/ky/002",
    "source_last_checked": "2025-12-15"
  },
  {
    "id": "la-us001",
    "name": "LA Industrial Site 001",
    "asset_type": "industrial_building",
    "address": "6037 Manufacturing Parkway",
    "city": "Logistics Park",
    "state": "LA",
    "zip": "28492",
    "lat": 30.572,
    "lon": -91.4554,
    "size_sqft": 896314,
    "acreage": null,
    "clear_height_ft": 30,
    "rail_distance_km": 4.2,
    "highway_distance_km": 5.0,
    "power_nearby": true,
    "power_mva_within_10km": 100,
    "water_wastewater_nearby": true,
    "source_name": "Owner",
    "source_url": "https://example.com/listings/la/001",
    "source_last_checked": "2025-12-15"
  },
  {
    "id": "la-us002",
    "name": "LA Tech Metals Site 002",
    "asset_type": "industrial_land",
    "address": "358 Commerce Way",
    "city": "Mfg District",
    "state": "LA",
    "zip": "21763",
    "lat": 30.5387,
    "lon": -91.6152,
    "size_sqft": null,
    "acreage": 160,
    "clear_height_ft": null,
    "rail_distance_km": 2.8,
    "highway_distance_km": 9.7,
    "power_nearby": false,
    "power_mva_within_10km": 50,
    "water_wastewater_nearby": true,
    "source_name": "City EDO",
    "source_url": "https://example.com/listings/la/002",
    "source_last_checked": "2025-12-15"
  },
  {
    "id": "me-us001",
    "name": "ME Industrial Site 001",
    "asset_type": "industrial_shell",
    "address": "9281 Railspur Ave",
    "city": "Supply Corridor",
    "state": "ME",
    "zip": "15408",
    "lat": 44.7891,
    "lon": -69.5548,
    "size_sqft": 774014,
    "acreage": null,
    "clear_height_ft": 34,
    "rail_distance_km": 4.2,
    "highway_distance_km": 9.1,
    "power_nearby": true,
    "power_mva_within_10km": 100,
    "water_wastewater_nearby": true,
    "source_name": "Utility",
    "source_url": "https://example.com/listings/me/001",
    "source_last_checked": "2025-12-15"
  },
  {
    "id": "md-us001",
    "name": "MD Industrial Site 001",
    "asset_type": "industrial_building",
    "address": "4355 Logistics Parkway",
    "city": "Commerce Zone",
    "state": "MD",
    "zip": "67797",
    "lat": 39.4325,
    "lon": -76.4944,
    "size_sqft": 398554,
    "acreage": null,
    "clear_height_ft": 30,
    "rail_distance_km": 10.8,
    "highway_distance_km": 6.7,
    "power_nearby": true,
    "power_mva_within_10km": 90,
    "water_wastewater_nearby": true,
    "source_name": "Owner",
    "source_url": "https://example.com/listings/md/001",
    "source_last_checked": "2025-12-15"
  },
  {
    "id": "md-us002",
    "name": "MD Industrial Site 002",
    "asset_type": "industrial_building",
    "address": "8517 Supply Parkway",
    "city": "Industrial Hub",
    "state": "MD",
    "zip": "47174",
    "lat": 39.1955,
    "lon": -77.2074,
    "size_sqft": 213082,
    "acreage": null,
    "clear_height_ft": 38,
    "rail_distance_km": 6.3,
    "highway_distance_km": 9.8,
    "power_nearby": true,
    "power_mva_within_10km": 100,
    "water_wastewater_nearby": true,
    "source_name": "Developer",
    "source_url": "https://example.com/listings/md/002",
    "source_last_checked": "2025-12-15"
  },
  {
    "id": "ma-us001",
    "name": "MA Processing Site 001",
    "asset_type": "industrial_land",
    "address": "5179 Industry Parkway",
    "city": "Logistics Park",
    "state": "MA",
    "zip": "23482",
    "lat": 42.1944,
    "lon": -71.9223,
    "size_sqft": null,
    "acreage": 80,
    "clear_height_ft": null,
    "rail_distance_km": 12.4,
    "highway_distance_km": 0.6,
    "power_nearby": true,
    "power_mva_within_10km": 100,
    "water_wastewater_nearby": true,
    "source_name": "Broker",
    "source_url": "https://example.com/listings/ma/001",
    "source_last_checked": "2025-12-15"
  },
  {
    "id": "ma-us002",
    "name": "MA Industrial Site 002",
    "asset_type": "industrial_shell",
    "address": "4417 Supply Ave",
    "city": "Logistics Park",
    "state": "MA",
    "zip": "85283",
    "lat": 42.7736,
    "lon": -72.1561,
    "size_sqft": 653790,
    "acreage": null,
    "clear_height_ft": 24,
    "rail_distance_km": 14.4,
    "highway_distance_km": 2.5,
    "power_nearby": true,
    "power_mva_within_10km": 20,
    "water_wastewater_nearby": false,
    "source_name": "Utility",
    "source_url": "https://example.com/listings/ma/002",
    "source_last_checked": "2025-12-15"
  },
  {
    "id": "mi-us001",
    "name": "MI Tech Metals Site 001",
    "asset_type": "industrial_building",
    "address": "4384 Manufacturing Parkway",
    "city": "Metro Area",
    "state": "MI",
    "zip": "54559",
    "lat": 44.4243,
    "lon": -85.5994,
    "size_sqft": 316847,
    "acreage": null,
    "clear_height_ft": 38,
    "rail_distance_km": 10.2,
    "highway_distance_km": 7.9,
    "power_nearby": true,
    "power_mva_within_10km": 60,
    "water_wastewater_nearby": true,
    "source_name": "City EDO",
    "source_url": "https://example.com/listings/mi/001",
    "source_last_checked": "2025-12-15"
  },
  {
    "id": "mi-us002",
    "name": "MI Materials Site 002",
    "asset_type": "industrial_building",
    "address": "9522 Railspur Blvd",
    "city": "Metro Area",
    "state": "MI",
    "zip": "59182",
    "lat": 44.5046,
    "lon": -85.1018,
    "size_sqft": 779746,
    "acreage": null,
    "clear_height_ft": 24,
    "rail_distance_km": 10.6,
    "highway_distance_km": 1.9,
    "power_nearby": true,
    "power_mva_within_10km": 100,
    "water_wastewater_nearby": true,
    "source_name": "Owner",
    "source_url": "https://example.com/listings/mi/002",
    "source_last_checked": "2025-12-15"
  },
  {
    "id": "mn-us001",
    "name": "MN Advanced Mfg Site 001",
    "asset_type": "industrial_shell",
    "address": "4105 Supply Blvd",
    "city": "Logistics Park",
    "state": "MN",
    "zip": "21345",
    "lat": 45.4615,
    "lon": -94.0435,
    "size_sqft": 797278,
    "acreage": null,
    "clear_height_ft": 34,
    "rail_distance_km": 12.6,
    "highway_distance_km": 6.2,
    "power_nearby": true,
    "power_mva_within_10km": 30,
    "water_wastewater_nearby": true,
    "source_name": "Owner",
    "source_url": "https://example.com/listings/mn/001",
    "source_last_checked": "2025-12-15"
  },
  {
    "id": "mn-us002",
    "name": "MN Processing Site 002",
    "asset_type": "industrial_shell",
    "address": "6881 Commerce Parkway",
    "city": "Metro Area",
    "state": "MN",
    "zip": "23975",
    "lat": 46.2768,
    "lon": -93.947,
    "size_sqft": 408362,
    "acreage": null,
    "clear_height_ft": 32,
    "rail_distance_km": 0.9,
    "highway_distance_km": 1.1,
    "power_nearby": true,
    "power_mva_within_10km": 30,
    "water_wastewater_nearby": true,
    "source_name": "Utility",
    "source_url": "https://example.com/listings/mn/002",
    "source_last_checked": "2025-12-15"
  },
  {
    "id": "ms-us001",
    "name": "MS Advanced Mfg Site 001",
    "asset_type": "industrial_land",
    "address": "8770 Commerce Way",
    "city": "Mfg District",
    "state": "MS",
    "zip": "89671",
    "lat": 32.356,
    "lon": -90.1604,
    "size_sqft": null,
    "acreage": 100,
    "clear_height_ft": null,
    "rail_distance_km": 13.8,
    "highway_distance_km": 1.5,
    "power_nearby": true,
    "power_mva_within_10km": 40,
    "water_wastewater_nearby": true,
    "source_name": "Developer",
    "source_url": "https://example.com/listings/ms/001",
    "source_last_checked": "2025-12-15"
  },
  {
    "id": "mo-us001",
    "name": "MO Distribution Site 001",
    "asset_type": "industrial_shell",
    "address": "2103 Logistics Rd",
    "city": "Metro Area",
    "state": "MO",
    "zip": "74965",
    "lat": 38.517,
    "lon": -92.5697,
    "size_sqft": 197928,
    "acreage": null,
    "clear_height_ft": 30,
    "rail_distance_km": 10.5,
    "highway_distance_km": 1.0,
    "power_nearby": true,
    "power_mva_within_10km": 30,
    "water_wastewater_nearby": false,
    "source_name": "Broker",
    "source_url": "https://example.com/listings/mo/001",
    "source_last_checked": "2025-12-15"
  },
  {
    "id": "mo-us002",
    "name": "MO Tech Metals Site 002",
    "asset_type": "industrial_land",
    "address": "3840 Commerce Way",
    "city": "Mfg District",
    "state": "MO",
    "zip": "67589",
    "lat": 38.7104,
    "lon": -91.9577,
    "size_sqft": null,
    "acreage": 120,
    "clear_height_ft": null,
    "rail_distance_km": 2.6,
    "highway_distance_km": 1.2,
    "power_nearby": false,
    "power_mva_within_10km": 60,
    "water_wastewater_nearby": false,
    "source_name": "City EDO",
    "source_url": "https://example.com/listings/mo/002",
    "source_last_checked": "2025-12-15"
  },
  {
    "id": "mt-us001",
    "name": "MT Industrial Site 001",
    "asset_type": "industrial_land",
    "address": "8944 Commerce Parkway",
    "city": "Commerce Zone",
    "state": "MT",
    "zip": "49054",
    "lat": 47.0041,
    "lon": -110.0199,
    "size_sqft": null,
    "acreage": 60,
    "clear_height_ft": null,
    "rail_distance_km": 6.2,
    "highway_distance_km": 9.1,
    "power_nearby": true,
    "power_mva_within_10km": 100,
    "water_wastewater_nearby": false,
    "source_name": "County",
    "source_url": "https://example.com/listings/mt/001",
    "source_last_checked": "2025-12-15"
  },
  {
    "id": "ne-us001",
    "name": "NE Materials Site 001",
    "asset_type": "industrial_land",
    "address": "9293 Industry Rd",
    "city": "Logistics Park",
    "state": "NE",
    "zip": "54816",
    "lat": 41.2535,
    "lon": -99.1844,
    "size_sqft": null,
    "acreage": 40,
    "clear_height_ft": null,
    "rail_distance_km": 11.0,
    "highway_distance_km": 7.1,
    "power_nearby": true,
    "power_mva_within_10km": 30,
    "water_wastewater_nearby": false,
    "source_name": "Utility",
    "source_url": "https://example.com/listings/ne/001",
    "source_last_checked": "2025-12-15"
  },
  {
    "id": "nv-us001",
    "name": "NV Materials Site 001",
    "asset_type": "industrial_shell",
    "address": "4775 Industry Parkway",
    "city": "Logistics Park",
    "state": "NV",
    "zip": "23166",
    "lat": 38.8304,
    "lon": -116.3795,
    "size_sqft": 569094,
    "acreage": null,
    "clear_height_ft": 38,
    "rail_distance_km": 12.0,
    "highway_distance_km": 2.9,
    "power_nearby": true,
    "power_mva_within_10km": 90,
    "water_wastewater_nearby": true,
    "source_name": "City EDO",
    "source_url": "https://example.com/listings/nv/001",
    "source_last_checked": "2025-12-15"
  },
  {
    "id": "nh-us001",
    "name": "NH Materials Site 001",
    "asset_type": "industrial_shell",
    "address": "8570 Commerce Blvd",
    "city": "Mfg District",
    "state": "NH",
    "zip": "41171",
    "lat": 44.2525,
    "lon": -71.2576,
    "size_sqft": 879288,
    "acreage": null,
    "clear_height_ft": 40,
    "rail_distance_km": 14.0,
    "highway_distance_km": 2.7,
    "power_nearby": true,
    "power_mva_within_10km": 50,
    "water_wastewater_nearby": true,
    "source_name": "City EDO",
    "source_url": "https://example.com/listings/nh/001",
    "source_last_checked": "2025-12-15"
  },
  {
    "id": "nj-us001",
    "name": "NJ Industrial Site 001",
    "asset_type": "industrial_building",
    "address": "360 Railspur Rd",
    "city": "Mfg District",
    "state": "NJ",
    "zip": "17034",
    "lat": 39.7583,
    "lon": -74.5337,
    "size_sqft": 355816,
    "acreage": null,
    "clear_height_ft": 30,
    "rail_distance_km": 13.7,
    "highway_distance_km": 2.8,
    "power_nearby": true,
    "power_mva_within_10km": 60,
    "water_wastewater_nearby": true,
    "source_name": "County",
    "source_url": "https://example.com/listings/nj/001",
    "source_last_checked": "2025-12-15"
  },
  {
    "id": "nj-us002",
    "name": "NJ Advanced Mfg Site 002",
    "asset_type": "industrial_land",
    "address": "3982 Industry Ave",
    "city": "Mfg District",
    "state": "NJ",
    "zip": "92373",
    "lat": 39.8502,
    "lon": -75.2233,
    "size_sqft": null,
    "acreage": 120,
    "clear_height_ft": null,
    "rail_distance_km": 11.5,
    "highway_distance_km": 7.9,
    "power_nearby": true,
    "power_mva_within_10km": 60,
    "water_wastewater_nearby": true,
    "source_name": "Developer",
    "source_url": "https://example.com/listings/nj/002",
    "source_last_checked": "2025-12-15"
  },
  {
    "id": "nj-us003",
    "name": "NJ Tech Metals Site 003",
    "asset_type": "industrial_building",
    "address": "7562 Manufacturing Parkway",
    "city": "Commerce Zone",
    "state": "NJ",
    "zip": "37328",
    "lat": 40.1025,
    "lon": -74.1916,
    "size_sqft": 408807,
    "acreage": null,
    "clear_height_ft": 32,
    "rail_distance_km": 3.0,
    "highway_distance_km": 1.9,
    "power_nearby": true,
    "power_mva_within_10km": 60,
    "water_wastewater_nearby": true,
    "source_name": "Owner",
    "source_url": "https://example.com/listings/nj/003",
    "source_last_checked": "2025-12-15"
  },
  {
    "id": "nm-us001",
    "name": "NM Industrial Site 001",
    "asset_type": "industrial_building",
    "address": "3418 Commerce Parkway",
    "city": "Industrial Hub",
    "state": "NM",
    "zip": "34177",
    "lat": 35.0719,
    "lon": -105.5159,
    "size_sqft": 385427,
    "acreage": null,
    "clear_height_ft": 38,
    "rail_distance_km": 1.8,
    "highway_distance_km": 7.8,
    "power_nearby": true,
    "power_mva_within_10km": 90,
    "water_wastewater_nearby": true,
    "source_name": "Broker",
    "source_url": "https://example.com/listings/nm/001",
    "source_last_checked": "2025-12-15"
  },
  {
    "id": "ny-us001",
    "name": "NY Advanced Mfg Site 001",
    "asset_type": "industrial_land",
    "address": "6147 Railspur Blvd",
    "city": "Mfg District",
    "state": "NY",
    "zip": "68595",
    "lat": 43.0714,
    "lon": -75.4356,
    "size_sqft": null,
    "acreage": 200,
    "clear_height_ft": null,
    "rail_distance_km": 9.3,
    "highway_distance_km": 6.8,
    "power_nearby": true,
    "power_mva_within_10km": 75,
    "water_wastewater_nearby": true,
    "source_name": "Owner",
    "source_url": "https://example.com/listings/ny/001",
    "source_last_checked": "2025-12-15"
  },
  {
    "id": "ny-us002",
    "name": "NY Tech Metals Site 002",
    "asset_type": "industrial_building",
    "address": "5978 Commerce Ave",
    "city": "Logistics Park",
    "state": "NY",
    "zip": "30496",
    "lat": 42.9832,
    "lon": -75.0332,
    "size_sqft": 108764,
    "acreage": null,
    "clear_height_ft": 32,
    "rail_distance_km": 5.5,
    "highway_distance_km": 10.0,
    "power_nearby": true,
    "power_mva_within_10km": 40,
    "water_wastewater_nearby": false,
    "source_name": "Utility",
    "source_url": "https://example.com/listings/ny/002",
    "source_last_checked": "2025-12-15"
  },
  {
    "id": "ny-us003",
    "name": "NY Tech Metals Site 003",
    "asset_type": "industrial_building",
    "address": "3607 Energy Rd",
    "city": "Supply Corridor",
    "state": "NY",
    "zip": "44918",
    "lat": 43.1708,
    "lon": -75.3236,
    "size_sqft": 330894,
    "acreage": null,
    "clear_height_ft": 28,
    "rail_distance_km": 14.2,
    "highway_distance_km": 5.3,
    "power_nearby": false,
    "power_mva_within_10km": 100,
    "water_wastewater_nearby": false,
    "source_name": "City EDO",
    "source_url": "https://example.com/listings/ny/003",
    "source_last_checked": "2025-12-15"
  },
  {
    "id": "ny-us004",
    "name": "NY Materials Site 004",
    "asset_type": "industrial_building",
    "address": "7654 Supply Way",
    "city": "Supply Corridor",
    "state": "NY",
    "zip": "74187",
    "lat": 42.94,
    "lon": -75.3831,
    "size_sqft": 124066,
    "acreage": null,
    "clear_height_ft": 34,
    "rail_distance_km": 12.0,
    "highway_distance_km": 7.3,
    "power_nearby": true,
    "power_mva_within_10km": 30,
    "water_wastewater_nearby": true,
    "source_name": "Utility",
    "source_url": "https://example.com/listings/ny/004",
    "source_last_checked": "2025-12-15"
  },
  {
    "id": "ny-us005",
    "name": "NY Processing Site 005",
    "asset_type": "industrial_shell",
    "address": "7303 Manufacturing Rd",
    "city": "Supply Corridor",
    "state": "NY",
    "zip": "52474",
    "lat": 43.3391,
    "lon": -75.8183,
    "size_sqft": 824569,
    "acreage": null,
    "clear_height_ft": 32,
    "rail_distance_km": 13.2,
    "highway_distance_km": 9.7,
    "power_nearby": true,
    "power_mva_within_10km": 60,
    "water_wastewater_nearby": false,
    "source_name": "County",
    "source_url": "https://example.com/listings/ny/005",
    "source_last_checked": "2025-12-15"
  },
  {
    "id": "nc-us001",
    "name": "NC Processing Site 001",
    "asset_type": "industrial_building",
    "address": "1256 Commerce Ave",
    "city": "Logistics Park",
    "state": "NC",
    "zip": "69969",
    "lat": 35.4062,
    "lon": -78.8815,
    "size_sqft": 320142,
    "acreage": null,
    "clear_height_ft": 28,
    "rail_distance_km": 13.1,
    "highway_distance_km": 4.0,
    "power_nearby": true,
    "power_mva_within_10km": 40,
    "water_wastewater_nearby": false,
    "source_name": "City EDO",
    "source_url": "https://example.com/listings/nc/001",
    "source_last_checked": "2025-12-15"
  },
  {
    "id": "nc-us002",
    "name": "NC Advanced Mfg Site 002",
    "asset_type": "industrial_land",
    "address": "6945 Railspur Blvd",
    "city": "Supply Corridor",
    "state": "NC",
    "zip": "63209",
    "lat": 36.0749,
    "lon": -79.0474,
    "size_sqft": null,
    "acreage": 100,
    "clear_height_ft": null,
    "rail_distance_km": 11.3,
    "highway_distance_km": 5.9,
    "power_nearby": true,
    "power_mva_within_10km": 120,
    "water_wastewater_nearby": true,
    "source_name": "Owner",
    "source_url": "https://example.com/listings/nc/002",
    "source_last_checked": "2025-12-15"
  },
  {
    "id": "nd-us001",
    "name": "ND Materials Site 001",
    "asset_type": "industrial_shell",
    "address": "651 Manufacturing Parkway",
    "city": "Commerce Zone",
    "state": "ND",
    "zip": "92228",
    "lat": 46.5629,
    "lon": -100.4721,
    "size_sqft": 558998,
    "acreage": null,
    "clear_height_ft": 32,
    "rail_distance_km": 12.7,
    "highway_distance_km": 7.2,
    "power_nearby": true,
    "power_mva_within_10km": 50,
    "water_wastewater_nearby": true,
    "source_name": "County",
    "source_url": "https://example.com/listings/nd/001",
    "source_last_checked": "2025-12-15"
  },
  {
    "id": "oh-us001",
    "name": "OH Tech Metals Site 001",
    "asset_type": "industrial_land",
    "address": "8568 Industry Parkway",
    "city": "Supply Corridor",
    "state": "OH",
    "zip": "27740",
    "lat": 40.4331,
    "lon": -83.2469,
    "size_sqft": null,
    "acreage": 240,
    "clear_height_ft": null,
    "rail_distance_km": 8.3,
    "highway_distance_km": 7.0,
    "power_nearby": true,
    "power_mva_within_10km": 90,
    "water_wastewater_nearby": true,
    "source_name": "Utility",
    "source_url": "https://example.com/listings/oh/001",
    "source_last_checked": "2025-12-15"
  },
  {
    "id": "oh-us002",
    "name": "OH Advanced Mfg Site 002",
    "asset_type": "industrial_shell",
    "address": "2713 Commerce Way",
    "city": "Metro Area",
    "state": "OH",
    "zip": "16650",
    "lat": 40.3118,
    "lon": -82.9613,
    "size_sqft": 314284,
    "acreage": null,
    "clear_height_ft": 24,
    "rail_distance_km": 14.6,
    "highway_distance_km": 2.7,
    "power_nearby": true,
    "power_mva_within_10km": 60,
    "water_wastewater_nearby": true,
    "source_name": "Owner",
    "source_url": "https://example.com/listings/oh/002",
    "source_last_checked": "2025-12-15"
  },
  {
    "id": "oh-us003",
    "name": "OH Materials Site 003",
    "asset_type": "industrial_building",
    "address": "2694 Energy Rd",
    "city": "Logistics Park",
    "state": "OH",
    "zip": "67454",
    "lat": 39.8527,
    "lon": -82.7107,
    "size_sqft": 788898,
    "acreage": null,
    "clear_height_ft": 40,
    "rail_distance_km": 1.8,
    "highway_distance_km": 6.2,
    "power_nearby": true,
    "power_mva_within_10km": 40,
    "water_wastewater_nearby": true,
    "source_name": "Utility",
    "source_url": "https://example.com/listings/oh/003",
    "source_last_checked": "2025-12-15"
  },
  {
    "id": "oh-us004",
    "name": "OH Tech Metals Site 004",
    "asset_type": "industrial_building",
    "address": "5224 Commerce Rd",
    "city": "Commerce Zone",
    "state": "OH",
    "zip": "77404",
    "lat": 39.8332,
    "lon": -83.1946,
    "size_sqft": 246962,
    "acreage": null,
    "clear_height_ft": 24,
    "rail_distance_km": 1.8,
    "highway_distance_km": 3.2,
    "power_nearby": true,
    "power_mva_within_10km": 75,
    "water_wastewater_nearby": false,
    "source_name": "City EDO",
    "source_url": "https://example.com/listings/oh/004",
    "source_last_checked": "2025-12-15"
  },
  {
    "id": "ok-us001",
    "name": "OK Distribution Site 001",
    "asset_type": "industrial_building",
    "address": "607 Industry Blvd",
    "city": "Commerce Zone",
    "state": "OK",
    "zip": "55461",
    "lat": 34.9353,
    "lon": -97.7159,
    "size_sqft": 166872,
    "acreage": null,
    "clear_height_ft": 28,
    "rail_distance_km": 9.9,
    "highway_distance_km": 8.4,
    "power_nearby": true,
    "power_mva_within_10km": 40,
    "water_wastewater_nearby": false,
    "source_name": "Utility",
    "source_url": "https://example.com/listings/ok/001",
    "source_last_checked": "2025-12-15"
  },
  {
    "id": "ok-us002",
    "name": "OK Advanced Mfg Site 002",
    "asset_type": "industrial_shell",
    "address": "8797 Industry Ave",
    "city": "Commerce Zone",
    "state": "OK",
    "zip": "86721",
    "lat": 35.275,
    "lon": -97.9664,
    "size_sqft": 498265,
    "acreage": null,
    "clear_height_ft": 40,
    "rail_distance_km": 7.4,
    "highway_distance_km": 9.3,
    "power_nearby": true,
    "power_mva_within_10km": 40,
    "water_wastewater_nearby": true,
    "source_name": "County",
    "source_url": "https://example.com/listings/ok/002",
    "source_last_checked": "2025-12-15"
  },
  {
    "id": "or-us001",
    "name": "OR Advanced Mfg Site 001",
    "asset_type": "industrial_shell",
    "address": "9602 Supply Rd",
    "city": "Industrial Hub",
    "state": "OR",
    "zip": "16347",
    "lat": 44.3211,
    "lon": -120.6403,
    "size_sqft": 725814,
    "acreage": null,
    "clear_height_ft": 36,
    "rail_distance_km": 14.1,
    "highway_distance_km": 5.6,
    "power_nearby": false,
    "power_mva_within_10km": 30,
    "water_wastewater_nearby": true,
    "source_name": "City EDO",
    "source_url": "https://example.com/listings/or/001",
    "source_last_checked": "2025-12-15"
  },
  {
    "id": "or-us002",
    "name": "OR Industrial Site 002",
    "asset_type": "industrial_shell",
    "address": "272 Energy Blvd",
    "city": "Industrial Hub",
    "state": "OR",
    "zip": "19428",
    "lat": 44.5523,
    "lon": -120.8695,
    "size_sqft": 176575,
    "acreage": null,
    "clear_height_ft": 36,
    "rail_distance_km": 4.1,
    "highway_distance_km": 7.7,
    "power_nearby": true,
    "power_mva_within_10km": 40,
    "water_wastewater_nearby": true,
    "source_name": "Utility",
    "source_url": "https://example.com/listings/or/002",
    "source_last_checked": "2025-12-15"
  },
  {
    "id": "pa-us001",
    "name": "PA Tech Metals Site 001",
    "asset_type": "industrial_building",
    "address": "7671 Commerce Rd",
    "city": "Mfg District",
    "state": "PA",
    "zip": "46529",
    "lat": 40.8991,
    "lon": -77.0745,
    "size_sqft": 719924,
    "acreage": null,
    "clear_height_ft": 36,
    "rail_distance_km": 12.8,
    "highway_distance_km": 9.4,
    "power_nearby": true,
    "power_mva_within_10km": 120,
    "water_wastewater_nearby": false,
    "source_name": "Developer",
    "source_url": "https://example.com/listings/pa/001",
    "source_last_checked": "2025-12-15"
  },
  {
    "id": "pa-us002",
    "name": "PA Materials Site 002",
    "asset_type": "industrial_land",
    "address": "3451 Commerce Way",
    "city": "Metro Area",
    "state": "PA",
    "zip": "16617",
    "lat": 41.4041,
    "lon": -78.0052,
    "size_sqft": null,
    "acreage": 320,
    "clear_height_ft": null,
    "rail_distance_km": 10.2,
    "highway_distance_km": 8.3,
    "power_nearby": false,
    "power_mva_within_10km": 40,
    "water_wastewater_nearby": true,
    "source_name": "County",
    "source_url": "https://example.com/listings/pa/002",
    "source_last_checked": "2025-12-15"
  },
  {
    "id": "pa-us003",
    "name": "PA Tech Metals Site 003",
    "asset_type": "industrial_building",
    "address": "9840 Supply Parkway",
    "city": "Metro Area",
    "state": "PA",
    "zip": "65448",
    "lat": 41.1712,
    "lon": -77.9449,
    "size_sqft": 684478,
    "acreage": null,
    "clear_height_ft": 36,
    "rail_distance_km": 1.5,
    "highway_distance_km": 9.9,
    "power_nearby": true,
    "power_mva_within_10km": 100,
    "water_wastewater_nearby": true,
    "source_name": "Developer",
    "source_url": "https://example.com/listings/pa/003",
    "source_last_checked": "2025-12-15"
  },
  {
    "id": "pa-us004",
    "name": "PA Industrial Site 004",
    "asset_type": "industrial_building",
    "address": "3026 Energy Way",
    "city": "Mfg District",
    "state": "PA",
    "zip": "30543",
    "lat": 41.1295,
    "lon": -77.3552,
    "size_sqft": 622201,
    "acreage": null,
    "clear_height_ft": 28,
    "rail_distance_km": 13.9,
    "highway_distance_km": 6.1,
    "power_nearby": true,
    "power_mva_within_10km": 75,
    "water_wastewater_nearby": true,
    "source_name": "County",
    "source_url": "https://example.com/listings/pa/004",
    "source_last_checked": "2025-12-15"
  },
  {
    "id": "ri-us001",
    "name": "RI Materials Site 001",
    "asset_type": "industrial_shell",
    "address": "3425 Manufacturing Blvd",
    "city": "Industrial Hub",
    "state": "RI",
    "zip": "46934",
    "lat": 42.1852,
    "lon": -71.6172,
    "size_sqft": 181269,
    "acreage": null,
    "clear_height_ft": 32,
    "rail_distance_km": 5.2,
    "highway_distance_km": 8.3,
    "power_nearby": true,
    "power_mva_within_10km": 60,
    "water_wastewater_nearby": true,
    "source_name": "Owner",
    "source_url": "https://example.com/listings/ri/001",
    "source_last_checked": "2025-12-15"
  },
  {
    "id": "sc-us001",
    "name": "SC Industrial Site 001",
    "asset_type": "industrial_land",
    "address": "3294 Logistics Blvd",
    "city": "Mfg District",
    "state": "SC",
    "zip": "22225",
    "lat": 33.2123,
    "lon": -81.4744,
    "size_sqft": null,
    "acreage": 200,
    "clear_height_ft": null,
    "rail_distance_km": 12.1,
    "highway_distance_km": 1.8,
    "power_nearby": true,
    "power_mva_within_10km": 100,
    "water_wastewater_nearby": true,
    "source_name": "County",
    "source_url": "https://example.com/listings/sc/001",
    "source_last_checked": "2025-12-15"
  },
  {
    "id": "sd-us001",
    "name": "SD Distribution Site 001",
    "asset_type": "industrial_building",
    "address": "7155 Railspur Ave",
    "city": "Industrial Hub",
    "state": "SD",
    "zip": "20100",
    "lat": 44.5738,
    "lon": -100.4281,
    "size_sqft": 558230,
    "acreage": null,
    "clear_height_ft": 38,
    "rail_distance_km": 10.9,
    "highway_distance_km": 6.4,
    "power_nearby": true,
    "power_mva_within_10km": 20,
    "water_wastewater_nearby": false,
    "source_name": "City EDO",
    "source_url": "https://example.com/listings/sd/001",
    "source_last_checked": "2025-12-15"
  },
  {
    "id": "tn-us001",
    "name": "TN Tech Metals Site 001",
    "asset_type": "industrial_building",
    "address": "9041 Industry Rd",
    "city": "Logistics Park",
    "state": "TN",
    "zip": "13354",
    "lat": 36.2006,
    "lon": -86.1924,
    "size_sqft": 372443,
    "acreage": null,
    "clear_height_ft": 24,
    "rail_distance_km": 6.8,
    "highway_distance_km": 8.9,
    "power_nearby": true,
    "power_mva_within_10km": 120,
    "water_wastewater_nearby": true,
    "source_name": "Developer",
    "source_url": "https://example.com/listings/tn/001",
    "source_last_checked": "2025-12-15"
  },
  {
    "id": "tn-us002",
    "name": "TN Tech Metals Site 002",
    "asset_type": "industrial_building",
    "address": "784 Energy Blvd",
    "city": "Metro Area",
    "state": "TN",
    "zip": "38149",
    "lat": 36.0875,
    "lon": -86.5448,
    "size_sqft": 510500,
    "acreage": null,
    "clear_height_ft": 38,
    "rail_distance_km": 4.2,
    "highway_distance_km": 7.7,
    "power_nearby": false,
    "power_mva_within_10km": 120,
    "water_wastewater_nearby": true,
    "source_name": "Owner",
    "source_url": "https://example.com/listings/tn/002",
    "source_last_checked": "2025-12-15"
  },
  {
    "id": "tx-us001",
    "name": "TX Distribution Site 001",
    "asset_type": "industrial_building",
    "address": "948 Energy Blvd",
    "city": "Metro Area",
    "state": "TX",
    "zip": "71275",
    "lat": 31.098,
    "lon": -99.7162,
    "size_sqft": 822966,
    "acreage": null,
    "clear_height_ft": 32,
    "rail_distance_km": 9.1,
    "highway_distance_km": 6.2,
    "power_nearby": true,
    "power_mva_within_10km": 20,
    "water_wastewater_nearby": true,
    "source_name": "Utility",
    "source_url": "https://example.com/listings/tx/001",
    "source_last_checked": "2025-12-15"
  },
  {
    "id": "tx-us002",
    "name": "TX Tech Metals Site 002",
    "asset_type": "industrial_land",
    "address": "1949 Logistics Ave",
    "city": "Metro Area",
    "state": "TX",
    "zip": "70733",
    "lat": 30.1126,
    "lon": -99.3701,
    "size_sqft": null,
    "acreage": 60,
    "clear_height_ft": null,
    "rail_distance_km": 10.6,
    "highway_distance_km": 8.4,
    "power_nearby": true,
    "power_mva_within_10km": 30,
    "water_wastewater_nearby": false,
    "source_name": "City EDO",
    "source_url": "https://example.com/listings/tx/002",
    "source_last_checked": "2025-12-15"
  },
  {
    "id": "tx-us003",
    "name": "TX Processing Site 003",
    "asset_type": "industrial_building",
    "address": "6294 Logistics Parkway",
    "city": "Industrial Hub",
    "state": "TX",
    "zip": "63569",
    "lat": 31.2703,
    "lon": -98.199,
    "size_sqft": 96102,
    "acreage": null,
    "clear_height_ft": 24,
    "rail_distance_km": 5.5,
    "highway_distance_km": 7.2,
    "power_nearby": true,
    "power_mva_within_10km": 90,
    "water_wastewater_nearby": true,
    "source_name": "County",
    "source_url": "https://example.com/listings/tx/003",
    "source_last_checked": "2025-12-15"
  },
  {
    "id": "tx-us004",
    "name": "TX Distribution Site 004",
    "asset_type": "industrial_shell",
    "address": "4595 Supply Blvd",
    "city": "Metro Area",
    "state": "TX",
    "zip": "27796",
    "lat": 31.3057,
    "lon": -99.1972,
    "size_sqft": 259898,
    "acreage": null,
    "clear_height_ft": 28,
    "rail_distance_km": 7.4,
    "highway_distance_km": 1.0,
    "power_nearby": false,
    "power_mva_within_10km": 120,
    "water_wastewater_nearby": true,
    "source_name": "Developer",
    "source_url": "https://example.com/listings/tx/004",
    "source_last_checked": "2025-12-15"
  },
  {
    "id": "tx-us005",
    "name": "TX Industrial Site 005",
    "asset_type": "industrial_shell",
    "address": "1486 Manufacturing Way",
    "city": "Industrial Hub",
    "state": "TX",
    "zip": "58003",
    "lat": 31.3258,
    "lon": -99.309,
    "size_sqft": 157340,
    "acreage": null,
    "clear_height_ft": 28,
    "rail_distance_km": 14.3,
    "highway_distance_km": 6.2,
    "power_nearby": true,
    "power_mva_within_10km": 50,
    "water_wastewater_nearby": true,
    "source_name": "Owner",
    "source_url": "https://example.com/listings/tx/005",
    "source_last_checked": "2025-12-15"
  },
  {
    "id": "tx-us006",
    "name": "TX Advanced Mfg Site 006",
    "asset_type": "industrial_building",
    "address": "5505 Manufacturing Way",
    "city": "Logistics Park",
    "state": "TX",
    "zip": "26658",
    "lat": 30.1873,
    "lon": -99.8382,
    "size_sqft": 365742,
    "acreage": null,
    "clear_height_ft": 24,
    "rail_distance_km": 14.3,
    "highway_distance_km": 4.8,
    "power_nearby": true,
    "power_mva_within_10km": 75,
    "water_wastewater_nearby": false,
    "source_name": "City EDO",
    "source_url": "https://example.com/listings/tx/006",
    "source_last_checked": "2025-12-15"
  },
  {
    "id": "ut-us001",
    "name": "UT Industrial Site 001",
    "asset_type": "industrial_building",
    "address": "1983 Supply Ave",
    "city": "Mfg District",
    "state": "UT",
    "zip": "55645",
    "lat": 39.8888,
    "lon": -111.5638,
    "size_sqft": 809148,
    "acreage": null,
    "clear_height_ft": 30,
    "rail_distance_km": 12.1,
    "highway_distance_km": 1.0,
    "power_nearby": false,
    "power_mva_within_10km": 20,
    "water_wastewater_nearby": true,
    "source_name": "Utility",
    "source_url": "https://example.com/listings/ut/001",
    "source_last_checked": "2025-12-15"
  },
  {
    "id": "vt-us001",
    "name": "VT Advanced Mfg Site 001",
    "asset_type": "industrial_land",
    "address": "8852 Manufacturing Way",
    "city": "Mfg District",
    "state": "VT",
    "zip": "39786",
    "lat": 43.7649,
    "lon": -72.4261,
    "size_sqft": null,
    "acreage": 120,
    "clear_height_ft": null,
    "rail_distance_km": 4.1,
    "highway_distance_km": 7.5,
    "power_nearby": true,
    "power_mva_within_10km": 60,
    "water_wastewater_nearby": false,
    "source_name": "Owner",
    "source_url": "https://example.com/listings/vt/001",
    "source_last_checked": "2025-12-15"
  },
  {
    "id": "va-us001",
    "name": "VA Industrial Site 001",
    "asset_type": "industrial_shell",
    "address": "6884 Industry Parkway",
    "city": "Logistics Park",
    "state": "VA",
    "zip": "18381",
    "lat": 37.8289,
    "lon": -78.9391,
    "size_sqft": 292226,
    "acreage": null,
    "clear_height_ft": 38,
    "rail_distance_km": 8.0,
    "highway_distance_km": 2.8,
    "power_nearby": true,
    "power_mva_within_10km": 75,
    "water_wastewater_nearby": false,
    "source_name": "Developer",
    "source_url": "https://example.com/listings/va/001",
    "source_last_checked": "2025-12-15"
  },
  {
    "id": "va-us002",
    "name": "VA Processing Site 002",
    "asset_type": "industrial_shell",
    "address": "7778 Logistics Blvd",
    "city": "Industrial Hub",
    "state": "VA",
    "zip": "44687",
    "lat": 37.0026,
    "lon": -78.3984,
    "size_sqft": 869020,
    "acreage": null,
    "clear_height_ft": 38,
    "rail_distance_km": 0.7,
    "highway_distance_km": 9.8,
    "power_nearby": true,
    "power_mva_within_10km": 40,
    "water_wastewater_nearby": false,
    "source_name": "Broker",
    "source_url": "https://example.com/listings/va/002",
    "source_last_checked": "2025-12-15"
  },
  {
    "id": "va-us003",
    "name": "VA Industrial Site 003",
    "asset_type": "industrial_building",
    "address": "5009 Energy Ave",
    "city": "Commerce Zone",
    "state": "VA",
    "zip": "81853",
    "lat": 37.4491,
    "lon": -77.9849,
    "size_sqft": 583232,
    "acreage": null,
    "clear_height_ft": 38,
    "rail_distance_km": 8.8,
    "highway_distance_km": 1.8,
    "power_nearby": true,
    "power_mva_within_10km": 20,
    "water_wastewater_nearby": true,
    "source_name": "Developer",
    "source_url": "https://example.com/listings/va/003",
    "source_last_checked": "2025-12-15"
  },
  {
    "id": "wa-us001",
    "name": "WA Distribution Site 001",
    "asset_type": "industrial_shell",
    "address": "5856 Logistics Rd",
    "city": "Mfg District",
    "state": "WA",
    "zip": "51992",
    "lat": 47.4931,
    "lon": -121.0275,
    "size_sqft": 216888,
    "acreage": null,
    "clear_height_ft": 38,
    "rail_distance_km": 3.7,
    "highway_distance_km": 7.5,
    "power_nearby": true,
    "power_mva_within_10km": 30,
    "water_wastewater_nearby": true,
    "source_name": "Owner",
    "source_url": "https://example.com/listings/wa/001",
    "source_last_checked": "2025-12-15"
  },
  {
    "id": "wa-us002",
    "name": "WA Distribution Site 002",
    "asset_type": "industrial_building",
    "address": "9680 Supply Way",
    "city": "Logistics Park",
    "state": "WA",
    "zip": "40398",
    "lat": 47.854,
    "lon": -120.9468,
    "size_sqft": 114809,
    "acreage": null,
    "clear_height_ft": 30,
    "rail_distance_km": 0.4,
    "highway_distance_km": 1.3,
    "power_nearby": false,
    "power_mva_within_10km": 120,
    "water_wastewater_nearby": false,
    "source_name": "City EDO",
    "source_url": "https://example.com/listings/wa/002",
    "source_last_checked": "2025-12-15"
  },
  {
    "id": "wa-us003",
    "name": "WA Processing Site 003",
    "asset_type": "industrial_building",
    "address": "7589 Supply Blvd",
    "city": "Metro Area",
    "state": "WA",
    "zip": "49709",
    "lat": 47.6559,
    "lon": -120.2836,
    "size_sqft": 295814,
    "acreage": null,
    "clear_height_ft": 38,
    "rail_distance_km": 11.2,
    "highway_distance_km": 7.8,
    "power_nearby": true,
    "power_mva_within_10km": 20,
    "water_wastewater_nearby": true,
    "source_name": "Developer",
    "source_url": "https://example.com/listings/wa/003",
    "source_last_checked": "2025-12-15"
  },
  {
    "id": "wv-us001",
    "name": "WV Materials Site 001",
    "asset_type": "industrial_building",
    "address": "7732 Supply Parkway",
    "city": "Supply Corridor",
    "state": "WV",
    "zip": "97800",
    "lat": 38.1278,
    "lon": -80.7441,
    "size_sqft": 765886,
    "acreage": null,
    "clear_height_ft": 40,
    "rail_distance_km": 14.7,
    "highway_distance_km": 8.9,
    "power_nearby": true,
    "power_mva_within_10km": 90,
    "water_wastewater_nearby": true,
    "source_name": "Developer",
    "source_url": "https://example.com/listings/wv/001",
    "source_last_checked": "2025-12-15"
  },
  {
    "id": "wi-us001",
    "name": "WI Industrial Site 001",
    "asset_type": "industrial_land",
    "address": "274 Logistics Rd",
    "city": "Logistics Park",
    "state": "WI",
    "zip": "49076",
    "lat": 44.9022,
    "lon": -89.6258,
    "size_sqft": null,
    "acreage": 100,
    "clear_height_ft": null,
    "rail_distance_km": 1.1,
    "highway_distance_km": 8.5,
    "power_nearby": true,
    "power_mva_within_10km": 40,
    "water_wastewater_nearby": false,
    "source_name": "Utility",
    "source_url": "https://example.com/listings/wi/001",
    "source_last_checked": "2025-12-15"
  },
  {
    "id": "wi-us002",
    "name": "WI Industrial Site 002",
    "asset_type": "industrial_building",
    "address": "2890 Railspur Rd",
    "city": "Mfg District",
    "state": "WI",
    "zip": "33673",
    "lat": 44.3768,
    "lon": -89.6255,
    "size_sqft": 885898,
    "acreage": null,
    "clear_height_ft": 32,
    "rail_distance_km": 9.9,
    "highway_distance_km": 3.9,
    "power_nearby": true,
    "power_mva_within_10km": 60,
    "water_wastewater_nearby": false,
    "source_name": "City EDO",
    "source_url": "https://example.com/listings/wi/002",
    "source_last_checked": "2025-12-15"
  },
  {
    "id": "wy-us001",
    "name": "WY Processing Site 001",
    "asset_type": "industrial_shell",
    "address": "7418 Railspur Blvd",
    "city": "Metro Area",
    "state": "WY",
    "zip": "13467",
    "lat": 43.1899,
    "lon": -107.7483,
    "size_sqft": 98882,
    "acreage": null,
    "clear_height_ft": 36,
    "rail_distance_km": 14.8,
    "highway_distance_km": 5.7,
    "power_nearby": false,
    "power_mva_within_10km": 60,
    "water_wastewater_nearby": false,
    "source_name": "Broker",
    "source_url": "https://example.com/listings/wy/001",
    "source_last_checked": "2025-12-15"
  }
]
